[
    {"name": "Алупка", "latitude": "44.4197222", "longitude": "34.0430556", "region": "Автономная Республика Крым"},
    {"name": "Алушта", "latitude": "44.6637211", "longitude": "34.405013", "region": "Автономная Республика Крым"},
    {"name": "Армянск", "latitude": "46.1072222", "longitude": "33.6933333", "region": "Автономная Республика Крым"},
    {"name": "Бахчисарай", "latitude": "44.7527778", "longitude": "33.8608333", "region": "Автономная Республика Крым"},
    {"name": "Белогорск", "latitude": "45.0544444", "longitude": "34.6022222", "region": "Автономная Республика Крым"},
    {"name": "Джанкой", "latitude": "45.7086111", "longitude": "34.3933333", "region": "Автономная Республика Крым"},
    {"name": "Евпатория", "latitude": "45.2036111", "longitude": "33.3613889", "region": "Автономная Республика Крым"},
    {"name": "Керчь", "latitude": "45.33786", "longitude": "36.458401", "region": "Автономная Республика Крым"},
    {"name": "Красноперекопск", "latitude": "45.962849", "longitude": "33.787121", "region": "Автономная Республика Крым"},
    {"name": "Саки", "latitude": "45.1336111", "longitude": "33.5772222", "region": "Автономная Республика Крым"},
    {"name": "Севастополь", "latitude": "44.60000001", "longitude": "33.533333343333", "region": "Автономная Республика Крым"},
    {"name": "Симферополь", "latitude": "44.9480556", "longitude": "34.1041667", "region": "Автономная Республика Крым"},
    {"name": "Старый Крым", "latitude": "45.0291667", "longitude": "35.0886111", "region": "Автономная Республика Крым"},
    {"name": "Судак", "latitude": "44.858799", "longitude": "34.974979", "region": "Автономная Республика Крым"},
    {"name": "Феодосия", "latitude": "45.0488889", "longitude": "35.3791667", "region": "Автономная Республика Крым"},
    {"name": "Щёлкино", "latitude": "45.4281023", "longitude": "35.8165187", "region": "Автономная Республика Крым"},
    {"name": "Ялта", "latitude": "44.4994444", "longitude": "34.1552778", "region": "Автономная Республика Крым"},

    {"name": "Бар", "latitude": "49.630283", "longitude": "27.001648", "region": "Винницкая область"},
    {"name": "Бершадь", "latitude": "48.368954", "longitude": "29.5331654", "region": "Винницкая область"},
    {"name": "Винница", "latitude": "49.2333333", "longitude": "28.4833333", "region": "Винницкая область"},
    {"name": "Гайсин", "latitude": "48.8094444", "longitude": "29.3905556", "region": "Винницкая область"},
    {"name": "Жмеринка", "latitude": "49.038349", "longitude": "28.10556", "region": "Винницкая область"},
    {"name": "Казатин", "latitude": "49.711769", "longitude": "28.842859", "region": "Винницкая область"},
    {"name": "Калиновка", "latitude": "49.4472222", "longitude": "28.5230556", "region": "Винницкая область"},
    {"name": "Ладыжин", "latitude": "48.676151", "longitude": "29.262541", "region": "Винницкая область"},
    {"name": "Могилёв-Подольский", "latitude": "48.45", "longitude": "27.8", "region": "Винницкая область"},
    {"name": "Немиров", "latitude": "48.9726621", "longitude": "28.835666", "region": "Винницкая область"},
    {"name": "Погребище", "latitude": "49.4833333", "longitude": "29.2666667", "region": "Винницкая область"},
    {"name": "Тульчин", "latitude": "48.68", "longitude": "28.87", "region": "Винницкая область"},
    {"name": "Хмельник", "latitude": "49.563469", "longitude": "27.959379", "region": "Винницкая область"},
    {"name": "Шаргород", "latitude": "48.73761", "longitude": "28.08688", "region": "Винницкая область"},
    {"name": "Ямполь", "latitude": "49.9572775", "longitude": "26.2290711", "region": "Винницкая область"},

    {"name": "Берестечко", "latitude": "50.3505636", "longitude": "25.1007738", "region": "Волынская область"},
    {"name": "Владимир-Волынский", "latitude": "50.853578", "longitude": "24.311783", "region": "Волынская область"},
    {"name": "Горохов", "latitude": "50.500622", "longitude": "24.767559", "region": "Волынская область"},
    {"name": "Камень-Каширский", "latitude": "51.6241667", "longitude": "24.9605556", "region": "Волынская область"},
    {"name": "Киверцы", "latitude": "50.833621", "longitude": "25.460706", "region": "Волынская область"},
    {"name": "Ковель", "latitude": "51.212898", "longitude": "24.71343", "region": "Волынская область"},
    {"name": "Луцк", "latitude": "50.75", "longitude": "25.3358333", "region": "Волынская область"},
    {"name": "Любомль", "latitude": "51.2230556", "longitude": "24.0377778", "region": "Волынская область"},
    {"name": "Нововолынск", "latitude": "50.7333333", "longitude": "24.1666667", "region": "Волынская область"},
    {"name": "Рожище", "latitude": "50.915901", "longitude": "25.268551", "region": "Волынская область"},
    {"name": "Устилуг", "latitude": "50.86", "longitude": "24.15", "region": "Волынская область"},

    {"name": "Апостолово", "latitude": "47.65815", "longitude": "33.697819", "region": "Днепропетровская область"},
    {"name": "Верхнеднепровск", "latitude": "48.6561111", "longitude": "34.3283333", "region": "Днепропетровская область"},
    {"name": "Вольногорск", "latitude": "48.4833333", "longitude": "34.0166667", "region": "Днепропетровская область"},
    {"name": "Днепродзержинск", "latitude": "48.5166667", "longitude": "34.6166667", "region": "Днепропетровская область"},
    {"name": "Днепропетровск", "latitude": "48.45", "longitude": "34.9833333", "region": "Днепропетровская область"},
    {"name": "Жёлтые Воды", "latitude": "48.35", "longitude": "33.5", "region": "Днепропетровская область"},
    {"name": "Кривой Рог", "latitude": "47.899726", "longitude": "33.379534", "region": "Днепропетровская область"},
    {"name": "Марганец", "latitude": "47.6397222", "longitude": "34.6363889", "region": "Днепропетровская область"},
    {"name": "Никополь", "latitude": "47.5666667", "longitude": "34.4", "region": "Днепропетровская область"},
    {"name": "Новомосковск", "latitude": "48.6333333", "longitude": "35.2166667", "region": "Днепропетровская область"},
    {"name": "Орджоникидзе", "latitude": "44.9643961", "longitude": "35.3569007", "region": "Днепропетровская область"},
    {"name": "Павлоград", "latitude": "48.533939", "longitude": "35.869282", "region": "Днепропетровская область"},
    {"name": "Перещепино", "latitude": "49.016251", "longitude": "35.371681", "region": "Днепропетровская область"},
    {"name": "Першотравенск", "latitude": "48.3463889", "longitude": "36.4044444", "region": "Днепропетровская область"},
    {"name": "Подгородное", "latitude": "49.5355598", "longitude": "25.5276081", "region": "Днепропетровская область"},
    {"name": "Пятихатки", "latitude": "48.4113889", "longitude": "33.7105556", "region": "Днепропетровская область"},
    {"name": "Синельниково", "latitude": "48.3177778", "longitude": "35.5119444", "region": "Днепропетровская область"},
    {"name": "Терновка", "latitude": "48.5402778", "longitude": "29.9677778", "region": "Днепропетровская область"},

    {"name": "Авдеевка", "latitude": "48.1333333", "longitude": "37.7333333", "region": "Донецкая область"},
    {"name": "Артёмовск", "latitude": "48.599072", "longitude": "37.999241", "region": "Донецкая область"},
    {"name": "Волноваха", "latitude": "47.596119", "longitude": "37.490429", "region": "Донецкая область"},
    {"name": "Горловка", "latitude": "48.346432", "longitude": "38.059513", "region": "Донецкая область"},
    {"name": "Дзержинск", "latitude": "48.4", "longitude": "37.8333333", "region": "Донецкая область"},
    {"name": "Дебальцево", "latitude": "48.3333333", "longitude": "38.4", "region": "Донецкая область"},
    {"name": "Димитров", "latitude": "48.32357", "longitude": "37.291854", "region": "Донецкая область"},
    {"name": "Доброполье", "latitude": "48.4691324", "longitude": "37.0871223", "region": "Донецкая область"},
    {"name": "Докучаевск", "latitude": "47.770821", "longitude": "37.684361", "region": "Донецкая область"},
    {"name": "Донецк", "latitude": "48.0027778", "longitude": "37.8052778", "region": "Донецкая область"},
    {"name": "Дружковка", "latitude": "48.6166667", "longitude": "37.5333333", "region": "Донецкая область"},
    {"name": "Енакиево", "latitude": "48.2166667", "longitude": "38.2", "region": "Донецкая область"},
    {"name": "Ждановка", "latitude": "48.1462985", "longitude": "38.2540176", "region": "Донецкая область"},
    {"name": "Зугрэс", "latitude": "48.0166667", "longitude": "38.2666667", "region": "Донецкая область"},
    {"name": "Кировское", "latitude": "48.15", "longitude": "38.3666667", "region": "Донецкая область"},
    {"name": "Краматорск", "latitude": "48.736462", "longitude": "37.57164", "region": "Донецкая область"},
    {"name": "Красноармейск", "latitude": "48.2827778", "longitude": "37.1827778", "region": "Донецкая область"},
    {"name": "Красный Лиман", "latitude": "48.984211", "longitude": "37.810329", "region": "Донецкая область"},
    {"name": "Константиновка", "latitude": "48.51545", "longitude": "37.703629", "region": "Донецкая область"},
    {"name": "Мариуполь", "latitude": "47.1166667", "longitude": "37.55", "region": "Донецкая область"},
    {"name": "Макеевка", "latitude": "48.076179", "longitude": "38.068427", "region": "Донецкая область"},
    {"name": "Новогродовка", "latitude": "48.2045408", "longitude": "37.336821", "region": "Донецкая область"},
    {"name": "Селидово", "latitude": "48.144671", "longitude": "37.297897", "region": "Донецкая область"},
    {"name": "Славянск", "latitude": "48.846851", "longitude": "37.57954", "region": "Донецкая область"},
    {"name": "Снежное", "latitude": "48.0282789", "longitude": "38.7656122", "region": "Донецкая область"},
    {"name": "Соледар", "latitude": "48.6833333", "longitude": "38.1", "region": "Донецкая область"},
    {"name": "Торез", "latitude": "48.0166667", "longitude": "38.6333333", "region": "Донецкая область"},
    {"name": "Угледар", "latitude": "47.7833333", "longitude": "37.25", "region": "Донецкая область"},
    {"name": "Харцызск", "latitude": "48.037411", "longitude": "38.160301", "region": "Донецкая область"},
    {"name": "Шахтёрск", "latitude": "48.0333333", "longitude": "38.4833333", "region": "Донецкая область"},
    {"name": "Ясиноватая", "latitude": "48.1221425", "longitude": "37.8765944", "region": "Донецкая область"},

    {"name": "Андрушёвка", "latitude": "50.0166667", "longitude": "29.0166667", "region": "Житомирская область"},
    {"name": "Барановка", "latitude": "50.30204", "longitude": "27.67634", "region": "Житомирская область"},
    {"name": "Бердичев", "latitude": "49.903381", "longitude": "28.599251", "region": "Житомирская область"},
    {"name": "Житомир", "latitude": "50.259749", "longitude": "28.676248", "region": "Житомирская область"},
    {"name": "Коростень", "latitude": "50.95", "longitude": "28.6333333", "region": "Житомирская область"},
    {"name": "Коростышев", "latitude": "50.316639", "longitude": "29.06653", "region": "Житомирская область"},
    {"name": "Малин", "latitude": "50.77121", "longitude": "29.25297", "region": "Житомирская область"},
    {"name": "Новоград-Волынский", "latitude": "50.59256", "longitude": "27.62348", "region": "Житомирская область"},
    {"name": "Овруч", "latitude": "51.327251", "longitude": "28.818979", "region": "Житомирская область"},
    {"name": "Радомышль", "latitude": "50.4947222", "longitude": "29.2333333", "region": "Житомирская область"},

    {"name": "Берегово", "latitude": "48.2", "longitude": "22.6333333", "region": "Закарпатская область"},
    {"name": "Виноградов", "latitude": "48.138142", "longitude": "23.041519", "region": "Закарпатская область"},
    {"name": "Иршава", "latitude": "48.310911", "longitude": "23.037711", "region": "Закарпатская область"},
    {"name": "Мукачево", "latitude": "48.442411", "longitude": "22.723352", "region": "Закарпатская область"},
    {"name": "Перечин", "latitude": "48.7341667", "longitude": "22.4741667", "region": "Закарпатская область"},
    {"name": "Рахов", "latitude": "48.060829", "longitude": "24.205059", "region": "Закарпатская область"},
    {"name": "Свалява", "latitude": "48.5472222", "longitude": "22.9861111", "region": "Закарпатская область"},
    {"name": "Тячев", "latitude": "48.0113889", "longitude": "23.5722222", "region": "Закарпатская область"},
    {"name": "Ужгород", "latitude": "48.6166667", "longitude": "22.3", "region": "Закарпатская область"},
    {"name": "Хуст", "latitude": "48.1813889", "longitude": "23.2977778", "region": "Закарпатская область"},
    {"name": "Чоп", "latitude": "48.4333333", "longitude": "22.2", "region": "Закарпатская область"},

    {"name": "Бердянск", "latitude": "46.748581", "longitude": "36.809502", "region": "Запорожская область"},
    {"name": "Васильевка", "latitude": "47.433708", "longitude": "35.27816", "region": "Запорожская область"},
    {"name": "Вольнянск", "latitude": "47.9419444", "longitude": "35.4280556", "region": "Запорожская область"},
    {"name": "Гуляйполе", "latitude": "47.658562", "longitude": "36.252918", "region": "Запорожская область"},
    {"name": "Днепрорудное", "latitude": "47.3840983", "longitude": "34.98121", "region": "Запорожская область"},
    {"name": "Запорожье", "latitude": "47.853748", "longitude": "35.157139", "region": "Запорожская область"},
    {"name": "Каменка-Днепровская", "latitude": "47.488911", "longitude": "34.400761", "region": "Запорожская область"},
    {"name": "Мелитополь", "latitude": "46.847839", "longitude": "35.364979", "region": "Запорожская область"},
    {"name": "Молочанск", "latitude": "47.206982", "longitude": "35.59618", "region": "Запорожская область"},
    {"name": "Орехов", "latitude": "47.5666667", "longitude": "35.7833333", "region": "Запорожская область"},
    {"name": "Пологи", "latitude": "47.47728", "longitude": "36.25626", "region": "Запорожская область"},
    {"name": "Приморск", "latitude": "46.7333333", "longitude": "36.35", "region": "Запорожская область"},
    {"name": "Токмак", "latitude": "47.25", "longitude": "35.7", "region": "Запорожская область"},
    {"name": "Энергодар", "latitude": "47.4979877", "longitude": "34.6565334", "region": "Запорожская область"},

    {"name": "Болехов", "latitude": "49.070011", "longitude": "23.864719", "region": "Ивано-Франковская область"},
    {"name": "Бурштын", "latitude": "49.263802", "longitude": "24.634211", "region": "Ивано-Франковская область"},
    {"name": "Галич", "latitude": "49.1247222", "longitude": "24.7286111", "region": "Ивано-Франковская область"},
    {"name": "Городенка", "latitude": "48.6675", "longitude": "25.5002778", "region": "Ивано-Франковская область"},
    {"name": "Долина", "latitude": "51.79", "longitude": "33.76", "region": "Ивано-Франковская область"},
    {"name": "Ивано-Франковск", "latitude": "48.9166667", "longitude": "24.7166667", "region": "Ивано-Франковская область"},
    {"name": "Калуш", "latitude": "49.050465", "longitude": "24.374117", "region": "Ивано-Франковская область"},
    {"name": "Коломыя", "latitude": "48.53146", "longitude": "25.039709", "region": "Ивано-Франковская область"},
    {"name": "Косов", "latitude": "48.315", "longitude": "25.0952778", "region": "Ивано-Франковская область"},
    {"name": "Надворная", "latitude": "48.6333333", "longitude": "24.5833333", "region": "Ивано-Франковская область"},
    {"name": "Рогатин", "latitude": "49.411449", "longitude": "24.62051", "region": "Ивано-Франковская область"},
    {"name": "Снятын", "latitude": "48.45", "longitude": "25.5666667", "region": "Ивано-Франковская область"},
    {"name": "Тысменица", "latitude": "48.9008333", "longitude": "24.8491667", "region": "Ивано-Франковская область"},
    {"name": "Тлумач", "latitude": "48.8666667", "longitude": "25.0", "region": "Ивано-Франковская область"},
    {"name": "Яремче", "latitude": "48.449523", "longitude": "24.557508", "region": "Ивано-Франковская область"},

    {"name": "Белая Церковь", "latitude": "49.7988889", "longitude": "30.1152778", "region": "Киевская область"},
    {"name": "Березань", "latitude": "50.3197222", "longitude": "31.47", "region": "Киевская область"},
    {"name": "Богуслав", "latitude": "49.541031", "longitude": "30.88073", "region": "Киевская область"},
    {"name": "Борисполь", "latitude": "50.350491", "longitude": "30.960739", "region": "Киевская область"},
    {"name": "Боярка", "latitude": "49.323518", "longitude": "30.700165", "region": "Киевская область"},
    {"name": "Бровары", "latitude": "50.5166667", "longitude": "30.8166667", "region": "Киевская область"},
    {"name": "Буча", "latitude": "50.5569165", "longitude": "30.2230733", "region": "Киевская область"},
    {"name": "Васильков", "latitude": "50.178959", "longitude": "30.32715", "region": "Киевская область"},
    {"name": "Вишнёвое", "latitude": "50.4377778", "longitude": "33.3822222", "region": "Киевская область"},
    {"name": "Вышгород", "latitude": "50.5833333", "longitude": "30.5", "region": "Киевская область"},
    {"name": "Ирпень", "latitude": "50.5166667", "longitude": "30.25", "region": "Киевская область"},
    {"name": "Кагарлык", "latitude": "49.85722", "longitude": "30.82032", "region": "Киевская область"},
    {"name": "Киев", "latitude": "50.584981", "longitude": "30.235748", "region": "Киевская область"},
    {"name": "Мироновка", "latitude": "49.661022", "longitude": "30.98458", "region": "Киевская область"},
    {"name": "Обухов", "latitude": "50.105728", "longitude": "30.630699", "region": "Киевская область"},
    {"name": "Переяслав-Хмельницкий", "latitude": "50.070141", "longitude": "31.45775", "region": "Киевская область"},
    {"name": "Припять", "latitude": "51.4977778", "longitude": "24.1180556", "region": "Киевская область"},
    {"name": "Ржищев", "latitude": "49.972801", "longitude": "31.04777", "region": "Киевская область"},
    {"name": "Сквира", "latitude": "49.73719", "longitude": "29.66901", "region": "Киевская область"},
    {"name": "Славутич", "latitude": "51.523777", "longitude": "30.768559", "region": "Киевская область"},
    {"name": "Тараща", "latitude": "49.56065", "longitude": "30.510309", "region": "Киевская область"},
    {"name": "Тетиев", "latitude": "49.370575", "longitude": "29.680221", "region": "Киевская область"},
    {"name": "Узин", "latitude": "49.820228", "longitude": "30.438929", "region": "Киевская область"},
    {"name": "Украинка", "latitude": "50.1530861", "longitude": "30.7434917", "region": "Киевская область"},
    {"name": "Фастов", "latitude": "50.0833333", "longitude": "29.9166667", "region": "Киевская область"},
    {"name": "Чернобыль", "latitude": "51.2666667", "longitude": "30.2166667", "region": "Киевская область"},
    {"name": "Яготин", "latitude": "50.244949", "longitude": "31.796261", "region": "Киевская область"},

    {"name": "Александрия", "latitude": "48.6666667", "longitude": "33.1166667", "region": "Кировоградская область"},
    {"name": "Бобринец", "latitude": "48.050861", "longitude": "32.16589", "region": "Кировоградская область"},
    {"name": "Гайворон", "latitude": "48.3333333", "longitude": "29.8666667", "region": "Кировоградская область"},
    {"name": "Долинская", "latitude": "48.1108333", "longitude": "32.7647222", "region": "Кировоградская область"},
    {"name": "Знаменка", "latitude": "48.7166667", "longitude": "32.6666667", "region": "Кировоградская область"},
    {"name": "Кировоград", "latitude": "48.508389", "longitude": "32.264801", "region": "Кировоградская область"},
    {"name": "Малая Виска", "latitude": "48.65", "longitude": "31.6333333", "region": "Кировоградская область"},
    {"name": "Новомиргород", "latitude": "48.7833333", "longitude": "31.65", "region": "Кировоградская область"},
    {"name": "Новоукраинка", "latitude": "48.3155556", "longitude": "31.5269444", "region": "Кировоградская область"},
    {"name": "Светловодск", "latitude": "49.0502778", "longitude": "33.2419444", "region": "Кировоградская область"},

    {"name": "Александровск", "latitude": "48.5861652", "longitude": "39.1949396", "region": "Луганская область"},
    {"name": "Алмазная", "latitude": "48.5166667", "longitude": "38.5833333", "region": "Луганская область"},
    {"name": "Алчевск", "latitude": "48.4666667", "longitude": "38.8", "region": "Луганская область"},
    {"name": "Антрацит", "latitude": "48.1166667", "longitude": "39.0833333", "region": "Луганская область"},
    {"name": "Брянка", "latitude": "48.5133333", "longitude": "38.6430556", "region": "Луганская область"},
    {"name": "Вахрушево", "latitude": "48.174579", "longitude": "38.837224", "region": "Луганская область"},
    {"name": "Горное", "latitude": "49.1805556", "longitude": "23.7341667", "region": "Луганская область"},
    {"name": "Зимогорье", "latitude": "48.5833333", "longitude": "38.9333333", "region": "Луганская область"},
    {"name": "Золотое", "latitude": "48.6928568", "longitude": "38.5146349", "region": "Луганская область"},
    {"name": "Зоринск", "latitude": "48.4131636", "longitude": "38.6204799", "region": "Луганская область"},
    {"name": "Краснодон", "latitude": "48.29607", "longitude": "39.745239", "region": "Луганская область"},
    {"name": "Красный Луч", "latitude": "48.134041", "longitude": "38.931419", "region": "Луганская область"},
    {"name": "Лисичанск", "latitude": "48.896895", "longitude": "38.444143", "region": "Луганская область"},
    {"name": "Луганск", "latitude": "48.573269", "longitude": "39.355659", "region": "Луганская область"},
    {"name": "Лутугино", "latitude": "48.4019444", "longitude": "39.2102778", "region": "Луганская область"},
    {"name": "Миусинск", "latitude": "48.07", "longitude": "38.9", "region": "Луганская область"},
    {"name": "Молодогвардейск", "latitude": "48.3444444", "longitude": "39.6583333", "region": "Луганская область"},
    {"name": "Новодружеск", "latitude": "48.9666667", "longitude": "38.35", "region": "Луганская область"},
    {"name": "Новопсков", "latitude": "49.544731", "longitude": "39.103889", "region": "Луганская область"},
    {"name": "Первомайск", "latitude": "48.05", "longitude": "30.85", "region": "Луганская область"},
    {"name": "Перевальск", "latitude": "48.4388889", "longitude": "38.8194444", "region": "Луганская область"},
    {"name": "Петровское", "latitude": "48.293331", "longitude": "38.888614", "region": "Луганская область"},
    {"name": "Попасная", "latitude": "48.6333333", "longitude": "38.38", "region": "Луганская область"},
    {"name": "Приволье", "latitude": "49.016706", "longitude": "38.302668", "region": "Луганская область"},
    {"name": "Ровеньки", "latitude": "48.0833333", "longitude": "39.3666667", "region": "Луганская область"},
    {"name": "Рубежное", "latitude": "49.0166667", "longitude": "38.3666667", "region": "Луганская область"},
    {"name": "Сватово", "latitude": "49.41011", "longitude": "38.15258", "region": "Луганская область"},
    {"name": "Свердловск", "latitude": "48.084549", "longitude": "39.65163", "region": "Луганская область"},
    {"name": "Северодонецк", "latitude": "48.950191", "longitude": "38.497631", "region": "Луганская область"},
    {"name": "Старобельск", "latitude": "49.2666667", "longitude": "38.9166667", "region": "Луганская область"},
    {"name": "Стаханов", "latitude": "48.5666667", "longitude": "38.65", "region": "Луганская область"},
    {"name": "Суходольск", "latitude": "48.3523068", "longitude": "39.7239205", "region": "Луганская область"},
    {"name": "Счастье", "latitude": "48.737247", "longitude": "39.2311974", "region": "Луганская область"},
    {"name": "Теплогорск", "latitude": "48.600487", "longitude": "38.5920825", "region": "Луганская область"},
    {"name": "Червонопартизанск", "latitude": "48.095566", "longitude": "39.759607", "region": "Луганская область"},

    {"name": "Белз", "latitude": "50.380501", "longitude": "24.01269", "region": "Львовская область"},
    {"name": "Бобрка", "latitude": "49.6331904", "longitude": "24.2907476", "region": "Львовская область"},
    {"name": "Борислав", "latitude": "49.28476", "longitude": "23.42137", "region": "Львовская область"},
    {"name": "Броды", "latitude": "50.0833333", "longitude": "25.15", "region": "Львовская область"},
    {"name": "Буск", "latitude": "49.9666667", "longitude": "24.6333333", "region": "Львовская область"},
    {"name": "Великие Мосты", "latitude": "50.24", "longitude": "24.1394444", "region": "Львовская область"},
    {"name": "Глиняны", "latitude": "49.8233333", "longitude": "24.5166667", "region": "Львовская область"},
    {"name": "Городок", "latitude": "49.1666667", "longitude": "26.5666667", "region": "Львовская область"},
    {"name": "Добромиль", "latitude": "49.5666667", "longitude": "22.7833333", "region": "Львовская область"},
    {"name": "Дрогобыч", "latitude": "49.34853", "longitude": "23.51647", "region": "Львовская область"},
    {"name": "Дубляны", "latitude": "49.8833333", "longitude": "24.0833333", "region": "Львовская область"},
    {"name": "Жидачов", "latitude": "49.3813889", "longitude": "24.1408333", "region": "Львовская область"},
    {"name": "Жолква", "latitude": "50.0666667", "longitude": "23.9666667", "region": "Львовская область"},
    {"name": "Золочев", "latitude": "49.8083333", "longitude": "24.9011111", "region": "Львовская область"},
    {"name": "Каменка-Бугская", "latitude": "50.1", "longitude": "24.35", "region": "Львовская область"},
    {"name": "Львов", "latitude": "49.85", "longitude": "24.0166667", "region": "Львовская область"},
    {"name": "Мостиска", "latitude": "49.7941667", "longitude": "23.1525", "region": "Львовская область"},
    {"name": "Перемышляны", "latitude": "49.67", "longitude": "24.5594444", "region": "Львовская область"},
    {"name": "Пустомыты", "latitude": "49.7138889", "longitude": "23.9108333", "region": "Львовская область"},
    {"name": "Рава-Русская", "latitude": "50.230431", "longitude": "23.628309", "region": "Львовская область"},
    {"name": "Радехов", "latitude": "50.2827778", "longitude": "24.6375", "region": "Львовская область"},
    {"name": "Рудки", "latitude": "49.6530556", "longitude": "23.4880556", "region": "Львовская область"},
    {"name": "Самбор", "latitude": "49.5166667", "longitude": "23.2027778", "region": "Львовская область"},
    {"name": "Сколе", "latitude": "49.036049", "longitude": "23.51232", "region": "Львовская область"},
    {"name": "Сокаль", "latitude": "50.4833333", "longitude": "24.2833333", "region": "Львовская область"},
    {"name": "Старый Самбор", "latitude": "49.4430556", "longitude": "23.0033333", "region": "Львовская область"},
    {"name": "Стрый", "latitude": "49.256171", "longitude": "23.850306", "region": "Львовская область"},
    {"name": "Трускавец", "latitude": "49.2805556", "longitude": "23.505", "region": "Львовская область"},
    {"name": "Угнев", "latitude": "50.3666667", "longitude": "23.7444444", "region": "Львовская область"},
    {"name": "Хыров", "latitude": "49.5333333", "longitude": "22.85", "region": "Львовская область"},
    {"name": "Червоноград", "latitude": "50.3833333", "longitude": "24.2333333", "region": "Львовская область"},
    {"name": "Яворов", "latitude": "49.942501", "longitude": "23.390989", "region": "Львовская область"},

    {"name": "Баштанка", "latitude": "47.404331", "longitude": "32.445301", "region": "Николаевская область"},
    {"name": "Вознесенск", "latitude": "47.587711", "longitude": "31.336", "region": "Николаевская область"},
    {"name": "Николаев", "latitude": "46.9666667", "longitude": "32.0", "region": "Николаевская область"},
    {"name": "Новая Одесса", "latitude": "47.3166667", "longitude": "31.7833333", "region": "Николаевская область"},
    {"name": "Новый Буг", "latitude": "47.6833333", "longitude": "32.5", "region": "Николаевская область"},
    {"name": "Очаков", "latitude": "46.6166667", "longitude": "31.55", "region": "Николаевская область"},
    {"name": "Первомайск", "latitude": "48.05", "longitude": "30.85", "region": "Николаевская область"},
    {"name": "Снигирёвка", "latitude": "47.0666667", "longitude": "32.8166667", "region": "Николаевская область"},
    {"name": "Южноукраинск", "latitude": "47.8166667", "longitude": "31.1833333", "region": "Николаевская область"},

    {"name": "Ананьев", "latitude": "47.7173", "longitude": "29.975639", "region": "Одесская область"},
    {"name": "Арциз", "latitude": "45.99739", "longitude": "29.431288", "region": "Одесская область"},
    {"name": "Балта", "latitude": "47.9333333", "longitude": "29.6166667", "region": "Одесская область"},
    {"name": "Белгород-Днестровский", "latitude": "46.1833333", "longitude": "30.3333333", "region": "Одесская область"},
    {"name": "Болград", "latitude": "45.682701", "longitude": "28.61935", "region": "Одесская область"},
    {"name": "Измаил", "latitude": "45.3516667", "longitude": "28.8363889", "region": "Одесская область"},
    {"name": "Ильичёвск", "latitude": "46.3020534", "longitude": "30.6517391", "region": "Одесская область"},
    {"name": "Килия", "latitude": "45.45578", "longitude": "29.273291", "region": "Одесская область"},
    {"name": "Кодыма", "latitude": "48.093941", "longitude": "29.13368", "region": "Одесская область"},
    {"name": "Котовск", "latitude": "47.75", "longitude": "29.5333333", "region": "Одесская область"},
    {"name": "Одесса", "latitude": "46.4666667", "longitude": "30.7333333", "region": "Одесская область"},
    {"name": "Татарбунары", "latitude": "45.841418", "longitude": "29.62284", "region": "Одесская область"},
    {"name": "Теплодар", "latitude": "46.5", "longitude": "30.3333333", "region": "Одесская область"},
    {"name": "Южное", "latitude": "47.8173262", "longitude": "33.5737487", "region": "Одесская область"},

    {"name": "Гадяч", "latitude": "50.3666667", "longitude": "34.0", "region": "Полтавская область"},
    {"name": "Глобино", "latitude": "49.3833333", "longitude": "33.2833333", "region": "Полтавская область"},
    {"name": "Гребёнка", "latitude": "50.116852", "longitude": "32.44059", "region": "Полтавская область"},
    {"name": "Зеньков", "latitude": "50.20955", "longitude": "34.362345", "region": "Полтавская область"},
    {"name": "Карловка", "latitude": "49.45", "longitude": "35.1333333", "region": "Полтавская область"},
    {"name": "Кременчуг", "latitude": "49.073521", "longitude": "33.4231", "region": "Полтавская область"},
    {"name": "Кобеляки", "latitude": "49.145439", "longitude": "34.213638", "region": "Полтавская область"},
    {"name": "Комсомольск", "latitude": "49.013756", "longitude": "33.643381", "region": "Полтавская область"},
    {"name": "Лохвица", "latitude": "50.36319", "longitude": "33.253288", "region": "Полтавская область"},
    {"name": "Лубны", "latitude": "50.0166667", "longitude": "33.0", "region": "Полтавская область"},
    {"name": "Миргород", "latitude": "49.963799", "longitude": "33.61869", "region": "Полтавская область"},
    {"name": "Пирятин", "latitude": "50.23975", "longitude": "32.514309", "region": "Полтавская область"},
    {"name": "Полтава", "latitude": "49.59269", "longitude": "34.551159", "region": "Полтавская область"},
    {"name": "Хорол", "latitude": "49.790279", "longitude": "33.207809", "region": "Полтавская область"},
    {"name": "Червонозаводское", "latitude": "50.4", "longitude": "33.4", "region": "Полтавская область"},

    {"name": "Березне", "latitude": "51.0", "longitude": "26.75", "region": "Ровенская область"},
    {"name": "Дубно", "latitude": "50.38738", "longitude": "25.754559", "region": "Ровенская область"},
    {"name": "Дубровица", "latitude": "51.571209", "longitude": "26.56805", "region": "Ровенская область"},
    {"name": "Здолбунов", "latitude": "50.5166667", "longitude": "26.25", "region": "Ровенская область"},
    {"name": "Корец", "latitude": "50.619129", "longitude": "27.161869", "region": "Ровенская область"},
    {"name": "Костополь", "latitude": "50.8833333", "longitude": "26.45", "region": "Ровенская область"},
    {"name": "Кузнецовск", "latitude": "51.3436553", "longitude": "25.8490867", "region": "Ровенская область"},
    {"name": "Острог", "latitude": "50.3333333", "longitude": "26.5166667", "region": "Ровенская область"},
    {"name": "Радивилов", "latitude": "50.125777", "longitude": "25.264195", "region": "Ровенская область"},
    {"name": "Ровно", "latitude": "50.6166667", "longitude": "26.25", "region": "Ровенская область"},
    {"name": "Сарны", "latitude": "51.3372222", "longitude": "26.6058333", "region": "Ровенская область"},

    {"name": "Ахтырка", "latitude": "50.29855", "longitude": "34.892052", "region": "Сумская область"},
    {"name": "Белополье", "latitude": "51.149402", "longitude": "34.3175225", "region": "Сумская область"},
    {"name": "Бурынь", "latitude": "51.1978", "longitude": "33.847351", "region": "Сумская область"},
    {"name": "Глухов", "latitude": "51.6786111", "longitude": "33.9113889", "region": "Сумская область"},
    {"name": "Кролевец", "latitude": "51.550121", "longitude": "33.38279", "region": "Сумская область"},
    {"name": "Конотоп", "latitude": "51.237469", "longitude": "33.21217", "region": "Сумская область"},
    {"name": "Лебедин", "latitude": "48.96", "longitude": "31.52", "region": "Сумская область"},
    {"name": "Путивль", "latitude": "51.337589", "longitude": "33.87888", "region": "Сумская область"},
    {"name": "Ромны", "latitude": "50.743919", "longitude": "33.475712", "region": "Сумская область"},
    {"name": "Середина-Буда", "latitude": "52.1833333", "longitude": "34.0333333", "region": "Сумская область"},
    {"name": "Сумы", "latitude": "50.910561", "longitude": "34.80566", "region": "Сумская область"},
    {"name": "Тростянец", "latitude": "50.9599282", "longitude": "25.55378", "region": "Сумская область"},
    {"name": "Шостка", "latitude": "51.86282", "longitude": "33.487831", "region": "Сумская область"},

    {"name": "Бережаны", "latitude": "49.444191", "longitude": "24.94486", "region": "Тернопольская область"},
    {"name": "Борщёв", "latitude": "48.803181", "longitude": "26.041809", "region": "Тернопольская область"},
    {"name": "Бучач", "latitude": "49.05772", "longitude": "25.401979", "region": "Тернопольская область"},
    {"name": "Залещики", "latitude": "48.65", "longitude": "25.7333333", "region": "Тернопольская область"},
    {"name": "Збараж", "latitude": "49.6666667", "longitude": "25.7777778", "region": "Тернопольская область"},
    {"name": "Зборов", "latitude": "49.660696", "longitude": "25.1434667", "region": "Тернопольская область"},
    {"name": "Кременец", "latitude": "50.099129", "longitude": "25.7328", "region": "Тернопольская область"},
    {"name": "Лановцы", "latitude": "49.8659402", "longitude": "26.0841931", "region": "Тернопольская область"},
    {"name": "Монастыриска", "latitude": "49.0888889", "longitude": "25.1694444", "region": "Тернопольская область"},
    {"name": "Подволочиск", "latitude": "49.5246859", "longitude": "26.137326", "region": "Тернопольская область"},
    {"name": "Подгайцы", "latitude": "49.2694444", "longitude": "25.1361111", "region": "Тернопольская область"},
    {"name": "Почаев", "latitude": "50.0", "longitude": "25.5083333", "region": "Тернопольская область"},
    {"name": "Скалат", "latitude": "49.424214", "longitude": "25.976246", "region": "Тернопольская область"},
    {"name": "Тернополь", "latitude": "49.551361", "longitude": "25.603979", "region": "Тернопольская область"},
    {"name": "Теребовля", "latitude": "49.29348", "longitude": "25.699551", "region": "Тернопольская область"},
    {"name": "Чортков", "latitude": "49.0166667", "longitude": "25.8", "region": "Тернопольская область"},
    {"name": "Шумск", "latitude": "50.122577", "longitude": "26.1149716", "region": "Тернопольская область"},

    {"name": "Балаклея", "latitude": "49.4658333", "longitude": "36.8677778", "region": "Харьковская область"},
    {"name": "Барвенково", "latitude": "48.9", "longitude": "37.0166667", "region": "Харьковская область"},
    {"name": "Богодухов", "latitude": "50.1654302", "longitude": "35.5267251", "region": "Харьковская область"},
    {"name": "Валки", "latitude": "49.843601", "longitude": "35.61388", "region": "Харьковская область"},
    {"name": "Великий Бурлук", "latitude": "50.0455556", "longitude": "37.3905556", "region": "Харьковская область"},
    {"name": "Волчанск", "latitude": "50.278519", "longitude": "36.945171", "region": "Харьковская область"},
    {"name": "Дергачи", "latitude": "50.110668", "longitude": "36.114361", "region": "Харьковская область"},
    {"name": "Змиев", "latitude": "49.701939", "longitude": "36.355171", "region": "Харьковская область"},
    {"name": "Изюм", "latitude": "49.2127778", "longitude": "37.2569444", "region": "Харьковская область"},
    {"name": "Красноград", "latitude": "49.3666667", "longitude": "35.45", "region": "Харьковская область"},
    {"name": "Купянск", "latitude": "49.721901", "longitude": "37.624329", "region": "Харьковская область"},
    {"name": "Лозовая", "latitude": "48.891684", "longitude": "36.325786", "region": "Харьковская область"},
    {"name": "Люботин", "latitude": "49.95", "longitude": "35.9166667", "region": "Харьковская область"},
    {"name": "Мерефа", "latitude": "49.8166667", "longitude": "36.05", "region": "Харьковская область"},
    {"name": "Первомайский", "latitude": "49.3833333", "longitude": "36.2166667", "region": "Харьковская область"},
    {"name": "Харьков", "latitude": "49.98967", "longitude": "36.208309", "region": "Харьковская область"},
    {"name": "Чугуев", "latitude": "49.8355556", "longitude": "36.6863889", "region": "Харьковская область"},

    {"name": "Берислав", "latitude": "46.843822", "longitude": "33.4375", "region": "Херсонская область"},
    {"name": "Геническ", "latitude": "46.171638", "longitude": "34.80777", "region": "Херсонская область"},
    {"name": "Голая Пристань", "latitude": "46.5166667", "longitude": "32.5166667", "region": "Херсонская область"},
    {"name": "Каховка", "latitude": "46.817388", "longitude": "33.494325", "region": "Херсонская область"},
    {"name": "Новая Каховка", "latitude": "46.7666667", "longitude": "33.3666667", "region": "Херсонская область"},
    {"name": "Скадовск", "latitude": "46.116871", "longitude": "32.913731", "region": "Херсонская область"},
    {"name": "Таврийск", "latitude": "46.7528018", "longitude": "33.4216856", "region": "Херсонская область"},
    {"name": "Херсон", "latitude": "46.653368", "longitude": "32.629424", "region": "Херсонская область"},
    {"name": "Цюрупинск", "latitude": "46.62", "longitude": "32.72", "region": "Херсонская область"},

    {"name": "Волочиск", "latitude": "49.535179", "longitude": "26.22331", "region": "Хмельницкая область"},
    {"name": "Городок", "latitude": "49.1666667", "longitude": "26.5666667", "region": "Хмельницкая область"},
    {"name": "Деражня", "latitude": "49.267071", "longitude": "27.440269", "region": "Хмельницкая область"},
    {"name": "Дунаевцы", "latitude": "48.8909743", "longitude": "26.8546608", "region": "Хмельницкая область"},
    {"name": "Изяслав", "latitude": "50.119221", "longitude": "26.82629", "region": "Хмельницкая область"},
    {"name": "Каменец-Подольский", "latitude": "48.6833333", "longitude": "26.5833333", "region": "Хмельницкая область"},
    {"name": "Красилов", "latitude": "49.6519444", "longitude": "26.9705556", "region": "Хмельницкая область"},
    {"name": "Нетешин", "latitude": "50.3374232", "longitude": "26.6404529", "region": "Хмельницкая область"},
    {"name": "Полонное", "latitude": "50.122269", "longitude": "27.511909", "region": "Хмельницкая область"},
    {"name": "Славута", "latitude": "49.0563905", "longitude": "27.3944506", "region": "Хмельницкая область"},
    {"name": "Староконстантинов", "latitude": "49.7555556", "longitude": "27.2208333", "region": "Хмельницкая область"},
    {"name": "Хмельницкий", "latitude": "49.4166667", "longitude": "27.0", "region": "Хмельницкая область"},
    {"name": "Шепетовка", "latitude": "50.179131", "longitude": "27.07732", "region": "Хмельницкая область"},

    {"name": "Ватутино", "latitude": "49.0166667", "longitude": "31.0666667", "region": "Черкасская область"},
    {"name": "Городище", "latitude": "49.290649", "longitude": "31.443199", "region": "Черкасская область"},
    {"name": "Жашков", "latitude": "49.245522", "longitude": "30.11998", "region": "Черкасская область"},
    {"name": "Звенигородка", "latitude": "49.075489", "longitude": "30.967911", "region": "Черкасская область"},
    {"name": "Золотоноша", "latitude": "49.674271", "longitude": "32.040421", "region": "Черкасская область"},
    {"name": "Каменка", "latitude": "49.036347", "longitude": "32.103481", "region": "Черкасская область"},
    {"name": "Канев", "latitude": "49.75", "longitude": "31.4666667", "region": "Черкасская область"},
    {"name": "Корсунь-Шевченковский", "latitude": "49.421051", "longitude": "31.268993", "region": "Черкасская область"},
    {"name": "Монастырище", "latitude": "48.9909154", "longitude": "29.8051363", "region": "Черкасская область"},
    {"name": "Смела", "latitude": "49.224621", "longitude": "31.878401", "region": "Черкасская область"},
    {"name": "Тальное", "latitude": "48.8833333", "longitude": "30.7", "region": "Черкасская область"},
    {"name": "Умань", "latitude": "48.75", "longitude": "30.2166667", "region": "Черкасская область"},
    {"name": "Христиновка", "latitude": "48.8494444", "longitude": "29.97", "region": "Черкасская область"},
    {"name": "Черкассы", "latitude": "49.4333333", "longitude": "32.0666667", "region": "Черкасская область"},
    {"name": "Чигирин", "latitude": "49.072498", "longitude": "32.683578", "region": "Черкасская область"},
    {"name": "Шпола", "latitude": "49.00349", "longitude": "31.385559", "region": "Черкасская область"},

    {"name": "Бахмач", "latitude": "51.1830556", "longitude": "32.8297222", "region": "Черниговская область"},
    {"name": "Бобровица", "latitude": "50.745", "longitude": "31.3869444", "region": "Черниговская область"},
    {"name": "Борзна", "latitude": "51.249451", "longitude": "32.43034", "region": "Черниговская область"},
    {"name": "Городня", "latitude": "51.8905556", "longitude": "31.5936111", "region": "Черниговская область"},
    {"name": "Десна", "latitude": "50.9246667", "longitude": "30.756", "region": "Черниговская область"},
    {"name": "Ичня", "latitude": "50.863918", "longitude": "32.39307", "region": "Черниговская область"},
    {"name": "Корюковка", "latitude": "51.7754831", "longitude": "32.2595792", "region": "Черниговская область"},
    {"name": "Мена", "latitude": "51.521759", "longitude": "32.21888", "region": "Черниговская область"},
    {"name": "Нежин", "latitude": "51.0380556", "longitude": "31.8861111", "region": "Черниговская область"},
    {"name": "Новгород-Северский", "latitude": "52.0069896", "longitude": "33.2537069", "region": "Черниговская область"},
    {"name": "Носовка", "latitude": "50.9333333", "longitude": "31.5833333", "region": "Черниговская область"},
    {"name": "Прилуки", "latitude": "50.594181", "longitude": "32.38689", "region": "Черниговская область"},
    {"name": "Седнев", "latitude": "51.6463023", "longitude": "31.5616846", "region": "Черниговская область"},
    {"name": "Семёновка", "latitude": "52.173561", "longitude": "32.587059", "region": "Черниговская область"},
    {"name": "Чернигов", "latitude": "51.503653", "longitude": "31.293167", "region": "Черниговская область"},
    {"name": "Щорс", "latitude": "51.819321", "longitude": "31.94846", "region": "Черниговская область"},

    {"name": "Вашковцы", "latitude": "48.38", "longitude": "25.51", "region": "Черновицкая область"},
    {"name": "Вижница", "latitude": "48.25", "longitude": "25.1916667", "region": "Черновицкая область"},
    {"name": "Герца", "latitude": "48.1485764", "longitude": "26.2572996", "region": "Черновицкая область"},
    {"name": "Заставна", "latitude": "48.5166667", "longitude": "25.85", "region": "Черновицкая область"},
    {"name": "Кицмань", "latitude": "48.4425", "longitude": "25.7613889", "region": "Черновицкая область"},
    {"name": "Новоднестровск", "latitude": "48.5833333", "longitude": "27.4333333", "region": "Черновицкая область"},
    {"name": "Новоселица", "latitude": "48.2166667", "longitude": "26.2666667", "region": "Черновицкая область"},
    {"name": "Сокиряны", "latitude": "48.45", "longitude": "27.4166667", "region": "Черновицкая область"},
    {"name": "Сторожинец", "latitude": "48.1666667", "longitude": "25.7166667", "region": "Черновицкая область"},
    {"name": "Хотин", "latitude": "48.5", "longitude": "26.5", "region": "Черновицкая область"},
    {"name": "Черновцы", "latitude": "48.3", "longitude": "25.9333333", "region": "Черновицкая область"}
]